t_nsec,t_sec,header.frame_id,header.stamp.nanosec,header.stamp.sec,poses
1770511837376018946,1770511837.376019,world,375768429,1770511837,"[{""name"":""cf1"",""pose"":{""position"":{""x"":-2.6616692543029785,""y"":0.8235705494880676,""z"":0.07773002982139587},""orientation"":{""x"":0.023509182035923004,""y"":0.0009216691250912845,""z"":-0.02998221665620804,""w"":0.9992734789848328}}},{""name"":""gate_1"",""pose"":{""position"":{""x"":-1.7735438346862793,""y"":0.8768539428710938,""z"":1.0904641151428223},""orientation"":{""x"":0.0025402214378118515,""y"":-0.001110298209823668,""z"":0.03419603779911995,""w"":0.9994112849235535}}},{""name"":""gate_2"",""pose"":{""position"":{""x"":-0.10731616616249084,""y"":0.5078438520431519,""z"":0.8173069953918457},""orientation"":{""x"":0.021370621398091316,""y"":-0.004733816720545292,""z"":0.0968005582690239,""w"":0.995063066482544}}},{""name"":""gate_3"",""pose"":{""position"":{""x"":1.5229588747024536,""y"":0.7827115654945374,""z"":1.1107054948806763},""orientation"":{""x"":0.004888091702014208,""y"":0.027823254466056824,""z"":-0.22856537997722626,""w"":0.9731186032295227}}},{""name"":""gate_4"",""pose"":{""position"":{""x"":2.442535161972046,""y"":-0.5744576454162598,""z"":1.2730299234390259},""orientation"":{""x"":-0.03754769638180733,""y"":0.006533430889248848,""z"":0.8692805171012878,""w"":-0.492847740650177}}},{""name"":""gate_5"",""pose"":{""position"":{""x"":0.211955726146698,""y"":-1.1499311923980713,""z"":1.104454755783081},""orientation"":{""x"":-0.032689955085515976,""y"":0.003869864856824279,""z"":0.9699661731719971,""w"":-0.24100205302238464}}},{""name"":""gate_6"",""pose"":{""position"":{""x"":-1.672763705253601,""y"":-0.943859875202179,""z"":0.19920362532138824},""orientation"":{""x"":-0.028330141678452492,""y"":-0.031264230608940125,""z"":0.9990463256835938,""w"":-0.011244682595133781}}}]"
1770511837385998690,1770511837.3859985,world,385798305,1770511837,"[{""name"":""cf1"",""pose"":{""position"":{""x"":-2.6622209548950195,""y"":0.824967622756958,""z"":0.07873166352510452},""orientation"":{""x"":0.02533005364239216,""y"":0.013389235362410545,""z"":-0.03747124597430229,""w"":0.9988868832588196}}},{""name"":""gate_1"",""pose"":{""position"":{""x"":-1.7735377550125122,""y"":0.876854658126831,""z"":1.090466022491455},""orientation"":{""x"":0.0025177872739732265,""y"":-0.0011562523432075977,""z"":0.03416730463504791,""w"":0.9994122982025146}}},{""name"":""gate_2"",""pose"":{""position"":{""x"":-0.10722538828849792,""y"":0.5078853964805603,""z"":0.8173667788505554},""orientation"":{""x"":0.021190514788031578,""y"":-0.004764497745782137,""z"":0.09669652581214905,""w"":0.9950768947601318}}},{""name"":""gate_3"",""pose"":{""position"":{""x"":1.522976279258728,""y"":0.7826789021492004,""z"":1.1107194423675537},""orientation"":{""x"":0.00499446177855134,""y"":0.027874575927853584,""z"":-0.2286369949579239,""w"":0.9730997681617737}}},{""name"":""gate_4"",""pose"":{""position"":{""x"":2.442654848098755,""y"":-0.5743892192840576,""z"":1.2730793952941895},""orientation"":{""x"":-0.037911467254161835,""y"":0.006375419907271862,""z"":0.8692644834518433,""w"":-0.4928501844406128}}},{""name"":""gate_5"",""pose"":{""position"":{""x"":0.21194666624069214,""y"":-1.1499255895614624,""z"":1.104445219039917},""orientation"":{""x"":-0.03266141191124916,""y"":0.003867013845592737,""z"":0.969960629940033,""w"":-0.2410283237695694}}},{""name"":""gate_6"",""pose"":{""position"":{""x"":-1.672849178314209,""y"":-0.9438289999961853,""z"":0.19914047420024872},""orientation"":{""x"":-0.028370903804898262,""y"":-0.031216971576213837,""z"":0.9990459084510803,""w"":-0.011306668631732464}}}]"
1770511837395947018,1770511837.395947,world,395756106,1770511837,"[{""name"":""cf1"",""pose"":{""position"":{""x"":-2.6567764282226562,""y"":0.8291122317314148,""z"":0.06975219398736954},""orientation"":{""x"":0.01670852303504944,""y"":0.0019775405526161194,""z"":-0.03736021742224693,""w"":0.9991602301597595}}},{""name"":""gate_1"",""pose"":{""position"":{""x"":-1.7735340595245361,""y"":0.8768446445465088,""z"":1.0904738903045654},""orientation"":{""x"":0.0025348213966935873,""y"":-0.0011682905023917556,""z"":0.034188412129879,""w"":0.9994115233421326}}},{""name"":""gate_2"",""pose"":{""position"":{""x"":-0.10724989324808121,""y"":0.5078678727149963,""z"":0.8173321485519409},""orientation"":{""x"":0.02124447375535965,""y"":-0.004587341099977493,""z"":0.09665680676698685,""w"":0.9950804710388184}}},{""name"":""gate_3"",""pose"":{""position"":{""x"":1.5229889154434204,""y"":0.7826772928237915,""z"":1.110724925994873},""orientation"":{""x"":0.004977806005626917,""y"":0.027872640639543533,""z"":-0.2286246120929718,""w"":0.9731028079986572}}},{""name"":""gate_4"",""pose"":{""position"":{""x"":2.4426426887512207,""y"":-0.5743715763092041,""z"":1.2730845212936401},""orientation"":{""x"":-0.037987273186445236,""y"":0.0063370042480528355,""z"":0.8692859411239624,""w"":-0.4928070604801178}}},{""name"":""gate_5"",""pose"":{""position"":{""x"":0.21205061674118042,""y"":-1.1500372886657715,""z"":1.104506254196167},""orientation"":{""x"":-0.03302527964115143,""y"":0.004037600010633469,""z"":0.9699628949165344,""w"":-0.24096687138080597}}},{""name"":""gate_6"",""pose"":{""position"":{""x"":-1.6728907823562622,""y"":-0.943873405456543,""z"":0.19916023313999176},""orientation"":{""x"":-0.028509892523288727,""y"":-0.03129855543375015,""z"":0.999039888381958,""w"":-0.01126383151859045}}}]"
1770511837403981686,1770511837.4039817,world,403790544,1770511837,"[{""name"":""cf1"",""pose"":{""position"":{""x"":-2.6576833724975586,""y"":0.8301316499710083,""z"":0.07006721943616867},""orientation"":{""x"":0.02295736037194729,""y"":-0.05782647430896759,""z"":-0.028455542400479317,""w"":0.9976569414138794}}},{""name"":""gate_1"",""pose"":{""position"":{""x"":-1.773592233657837,""y"":0.8768481016159058,""z"":1.090442419052124},""orientation"":{""x"":0.002574584214016795,""y"":-0.001187977148219943,""z"":0.033888041973114014,""w"":0.9994215965270996}}},{""name"":""gate_2"",""pose"":{""position"":{""x"":-0.10739337652921677,""y"":0.5078794956207275,""z"":0.8175309300422668},""orientation"":{""x"":0.02131274901330471,""y"":-0.004956190008670092,""z"":0.0967758521437645,""w"":0.9950656294822693}}},{""name"":""gate_3"",""pose"":{""position"":{""x"":1.5230026245117188,""y"":0.7826796174049377,""z"":1.1107285022735596},""orientation"":{""x"":0.004946132190525532,""y"":0.027875050902366638,""z"":-0.22864581644535065,""w"":0.9730979204177856}}},{""name"":""gate_4"",""pose"":{""position"":{""x"":2.442650318145752,""y"":-0.5743712782859802,""z"":1.273072361946106},""orientation"":{""x"":-0.038033224642276764,""y"":0.006319839507341385,""z"":0.8693324327468872,""w"":-0.49272164702415466}}},{""name"":""gate_5"",""pose"":{""position"":{""x"":0.21197731792926788,""y"":-1.1499438285827637,""z"":1.1044589281082153},""orientation"":{""x"":-0.032672666013240814,""y"":0.00384859018959105,""z"":0.9699587821960449,""w"":-0.2410346418619156}}},{""name"":""gate_6"",""pose"":{""position"":{""x"":-1.6729203462600708,""y"":-0.9438492655754089,""z"":0.19921423494815826},""orientation"":{""x"":-0.028748564422130585,""y"":-0.031245721504092216,""z"":0.9990345239639282,""w"":-0.01128230057656765}}}]"
1770511837416058974,1770511837.4160588,world,415913232,1770511837,"[{""name"":""cf1"",""pose"":{""position"":{""x"":-2.6583266258239746,""y"":0.8316198587417603,""z"":0.07052475214004517},""orientation"":{""x"":-0.0020519066601991653,""y"":-0.058946605771780014,""z"":-0.04691045358777046,""w"":0.9971562027931213}}},{""name"":""gate_1"",""pose"":{""position"":{""x"":-1.7735227346420288,""y"":0.8768433332443237,""z"":1.0904643535614014},""orientation"":{""x"":0.0025202997494488955,""y"":-0.001109841512516141,""z"":0.034231219440698624,""w"":0.9994101524353027}}},{""name"":""gate_2"",""pose"":{""position"":{""x"":-0.10726910084486008,""y"":0.5078933835029602,""z"":0.8173486590385437},""orientation"":{""x"":0.021305445581674576,""y"":-0.004544139839708805,""z"":0.09671609848737717,""w"":0.9950735569000244}}},{""name"":""gate_3"",""pose"":{""position"":{""x"":1.5230035781860352,""y"":0.7826801538467407,""z"":1.1107404232025146},""orientation"":{""x"":0.004952858202159405,""y"":0.027879107743501663,""z"":-0.22863692045211792,""w"":0.9730998873710632}}},{""name"":""gate_4"",""pose"":{""position"":{""x"":2.4426612854003906,""y"":-0.574375331401825,""z"":1.2731149196624756},""orientation"":{""x"":-0.03811664134263992,""y"":0.006267705000936985,""z"":0.8693751096725464,""w"":-0.4926406145095825}}},{""name"":""gate_5"",""pose"":{""position"":{""x"":0.2119724601507187,""y"":-1.1499382257461548,""z"":1.1044930219650269},""orientation"":{""x"":-0.032705895602703094,""y"":0.003850033972412348,""z"":0.9699591398239136,""w"":-0.24102848768234253}}},{""name"":""gate_6"",""pose"":{""position"":{""x"":-1.6728432178497314,""y"":-0.9439021348953247,""z"":0.19928348064422607},""orientation"":{""x"":-0.028283726423978806,""y"":-0.031465496867895126,""z"":0.999042809009552,""w"":-0.011112041771411896}}}]"
1770511837426024666,1770511837.4260247,world,425872748,1770511837,"[{""name"":""cf1"",""pose"":{""position"":{""x"":-2.659424066543579,""y"":0.8324139714241028,""z"":0.07304493337869644},""orientation"":{""x"":0.036032453179359436,""y"":0.01935085467994213,""z"":-0.026623299345374107,""w"":0.9988085031509399}}},{""name"":""gate_1"",""pose"":{""position"":{""x"":-1.7736557722091675,""y"":0.8768602013587952,""z"":1.0903549194335938},""orientation"":{""x"":0.002711575012654066,""y"":-0.001210676971822977,""z"":0.03356635570526123,""w"":0.9994320869445801}}},{""name"":""gate_2"",""pose"":{""position"":{""x"":-0.10725216567516327,""y"":0.5079154372215271,""z"":0.8173858523368835},""orientation"":{""x"":0.021178413182497025,""y"":-0.004707075655460358,""z"":0.09674642980098724,""w"":0.995072603225708}}},{""name"":""gate_3"",""pose"":{""position"":{""x"":1.5229949951171875,""y"":0.7826683521270752,""z"":1.1107653379440308},""orientation"":{""x"":0.004997181706130505,""y"":0.02784332074224949,""z"":-0.2286527454853058,""w"":0.9730969667434692}}},{""name"":""gate_4"",""pose"":{""position"":{""x"":2.442660331726074,""y"":-0.5743502378463745,""z"":1.273120403289795},""orientation"":{""x"":-0.03815936669707298,""y"":0.0062405699864029884,""z"":0.8694292902946472,""w"":-0.49254199862480164}}},{""name"":""gate_5"",""pose"":{""position"":{""x"":0.21198680996894836,""y"":-1.1499378681182861,""z"":1.1044886112213135},""orientation"":{""x"":-0.03264483064413071,""y"":0.0038351768162101507,""z"":0.9699563384056091,""w"":-0.24104826152324677}}},{""name"":""gate_6"",""pose"":{""position"":{""x"":-1.6730384826660156,""y"":-0.9439464211463928,""z"":0.19915784895420074},""orientation"":{""x"":-0.02843639627099037,""y"":-0.031471461057662964,""z"":0.9990376830101013,""w"":-0.011164703406393528}}}]"
1770511837436064249,1770511837.4360642,world,435872720,1770511837,"[{""name"":""cf1"",""pose"":{""position"":{""x"":-2.6609723567962646,""y"":0.833774745464325,""z"":0.07501468807458878},""orientation"":{""x"":0.04171866178512573,""y"":-0.0007817966979928315,""z"":-0.025023818016052246,""w"":0.998815655708313}}},{""name"":""gate_1"",""pose"":{""position"":{""x"":-1.7735339403152466,""y"":0.8768503069877625,""z"":1.090469241142273},""orientation"":{""x"":0.00250120903365314,""y"":-0.0011479025706648827,""z"":0.03416350111365318,""w"":0.999412477016449}}},{""name"":""gate_2"",""pose"":{""position"":{""x"":-0.10728593170642853,""y"":0.507896900177002,""z"":0.8173640966415405},""orientation"":{""x"":0.021290184929966927,""y"":-0.0044811926782131195,""z"":0.09671423584222794,""w"":0.9950743913650513}}},{""name"":""gate_3"",""pose"":{""position"":{""x"":1.5230063199996948,""y"":0.7826715111732483,""z"":1.1107829809188843},""orientation"":{""x"":0.004989102482795715,""y"":0.02783524990081787,""z"":-0.22864976525306702,""w"":0.9730979204177856}}},{""name"":""gate_4"",""pose"":{""position"":{""x"":2.44266414642334,""y"":-0.5743441581726074,""z"":1.2731225490570068},""orientation"":{""x"":-0.03815694525837898,""y"":0.006242252886295319,""z"":0.869490921497345,""w"":-0.4924333691596985}}},{""name"":""gate_5"",""pose"":{""position"":{""x"":0.21206361055374146,""y"":-1.1500202417373657,""z"":1.1044907569885254},""orientation"":{""x"":-0.03279901295900345,""y"":0.0040553295984864235,""z"":0.9699382781982422,""w"":-0.24109649658203125}}},{""name"":""gate_6"",""pose"":{""position"":{""x"":-1.6730434894561768,""y"":-0.9438838958740234,""z"":0.19926504790782928},""orientation"":{""x"":-0.029417142271995544,""y"":-0.031211737543344498,""z"":0.9990149140357971,""w"":-0.01138816773891449}}}]"
1770511837446058716,1770511837.4460588,world,445856776,1770511837,"[{""name"":""cf1"",""pose"":{""position"":{""x"":-2.6609272956848145,""y"":0.8350752592086792,""z"":0.07502951472997665},""orientation"":{""x"":0.02593163028359413,""y"":0.016682356595993042,""z"":-0.03693833947181702,""w"":0.9988417625427246}}},{""name"":""gate_1"",""pose"":{""position"":{""x"":-1.7735140323638916,""y"":0.8768444061279297,""z"":1.0904533863067627},""orientation"":{""x"":0.002536166226491332,""y"":-0.0010958872735500336,""z"":0.0342307984828949,""w"":0.9994101524353027}}},{""name"":""gate_2"",""pose"":{""position"":{""x"":-0.10728616267442703,""y"":0.5079815983772278,""z"":0.8174698352813721},""orientation"":{""x"":0.021317897364497185,""y"":-0.004564210772514343,""z"":0.09678638726472855,""w"":0.9950664043426514}}},{""name"":""gate_3"",""pose"":{""position"":{""x"":1.5230060815811157,""y"":0.7826736569404602,""z"":1.1107728481292725},""orientation"":{""x"":0.004985196050256491,""y"":0.02785801887512207,""z"":-0.22865226864814758,""w"":0.9730967283248901}}},{""name"":""gate_4"",""pose"":{""position"":{""x"":2.4426887035369873,""y"":-0.5743322372436523,""z"":1.2731294631958008},""orientation"":{""x"":-0.03819628059864044,""y"":0.006258855108171701,""z"":0.8695359826087952,""w"":-0.49235057830810547}}},{""name"":""gate_5"",""pose"":{""position"":{""x"":0.2119615525007248,""y"":-1.1499313116073608,""z"":1.1044697761535645},""orientation"":{""x"":-0.032685477286577225,""y"":0.003854498267173767,""z"":0.9699592590332031,""w"":-0.24103087186813354}}},{""name"":""gate_6"",""pose"":{""position"":{""x"":-1.6730806827545166,""y"":-0.9439789652824402,""z"":0.19924135506153107},""orientation"":{""x"":-0.028917809948325157,""y"":-0.0315970778465271,""z"":0.9990195035934448,""w"":-0.011198700405657291}}}]"
1770511837456393041,1770511837.456393,world,456218021,1770511837,"[{""name"":""cf1"",""pose"":{""position"":{""x"":-2.6628105640411377,""y"":0.8364953994750977,""z"":0.07746411859989166},""orientation"":{""x"":0.046037040650844574,""y"":0.006449087988585234,""z"":-0.022116031497716904,""w"":0.9986740350723267}}},{""name"":""gate_1"",""pose"":{""position"":{""x"":-1.7735127210617065,""y"":0.8768433928489685,""z"":1.0904617309570312},""orientation"":{""x"":0.002524123527109623,""y"":-0.0010724588064476848,""z"":0.03420111909508705,""w"":0.9994112253189087}}},{""name"":""gate_2"",""pose"":{""position"":{""x"":-0.10728272795677185,""y"":0.5079066157341003,""z"":0.8173463344573975},""orientation"":{""x"":0.021266674622893333,""y"":-0.0044757830910384655,""z"":0.09675339609384537,""w"":0.9950711131095886}}},{""name"":""gate_3"",""pose"":{""position"":{""x"":1.523014783859253,""y"":0.7826884388923645,""z"":1.1107497215270996},""orientation"":{""x"":0.004939446225762367,""y"":0.02787996642291546,""z"":-0.22866202890872955,""w"":0.9730940461158752}}},{""name"":""gate_4"",""pose"":{""position"":{""x"":2.4427030086517334,""y"":-0.5743139386177063,""z"":1.273127794265747},""orientation"":{""x"":-0.03819355368614197,""y"":0.006254451349377632,""z"":0.8695669174194336,""w"":-0.49229612946510315}}},{""name"":""gate_5"",""pose"":{""position"":{""x"":0.21196773648262024,""y"":-1.1499192714691162,""z"":1.104449987411499},""orientation"":{""x"":-0.03265826776623726,""y"":0.0038768001832067966,""z"":0.9699514508247375,""w"":-0.2410656213760376}}},{""name"":""gate_6"",""pose"":{""position"":{""x"":-1.673180103302002,""y"":-0.9438474178314209,""z"":0.19921700656414032},""orientation"":{""x"":-0.029422681778669357,""y"":-0.03123600035905838,""z"":0.9990133047103882,""w"":-0.011448005214333534}}}]"
1770511837466082351,1770511837.4660823,world,465885458,1770511837,"[{""name"":""cf1"",""pose"":{""position"":{""x"":-2.6628217697143555,""y"":0.8377249240875244,""z"":0.07715404778718948},""orientation"":{""x"":0.017919259145855904,""y"":0.005155647173523903,""z"":-0.041265543550252914,""w"":0.9989742040634155}}},{""name"":""gate_1"",""pose"":{""position"":{""x"":-1.773539423942566,""y"":0.87685227394104,""z"":1.0904045104980469},""orientation"":{""x"":0.0026328556705266237,""y"":-0.0011128040496259928,""z"":0.03399161621928215,""w"":0.9994180202484131}}},{""name"":""gate_2"",""pose"":{""position"":{""x"":-0.10728856921195984,""y"":0.5079471468925476,""z"":0.8174149990081787},""orientation"":{""x"":0.0213659405708313,""y"":-0.004400230944156647,""z"":0.0967702716588974,""w"":0.9950676560401917}}},{""name"":""gate_3"",""pose"":{""position"":{""x"":1.5230205059051514,""y"":0.7826709747314453,""z"":1.1107349395751953},""orientation"":{""x"":0.004973513539880514,""y"":0.027868743985891342,""z"":-0.22867104411125183,""w"":0.9730920791625977}}},{""name"":""gate_4"",""pose"":{""position"":{""x"":2.442728281021118,""y"":-0.574292778968811,""z"":1.2731194496154785},""orientation"":{""x"":-0.03814120963215828,""y"":0.006282208487391472,""z"":0.8695823550224304,""w"":-0.49227258563041687}}},{""name"":""gate_5"",""pose"":{""position"":{""x"":0.21197518706321716,""y"":-1.1499601602554321,""z"":1.1045433282852173},""orientation"":{""x"":-0.03280089795589447,""y"":0.003879066789522767,""z"":0.9699797034263611,""w"":-0.2409323751926422}}},{""name"":""gate_6"",""pose"":{""position"":{""x"":-1.6731889247894287,""y"":-0.9439036846160889,""z"":0.19917134940624237},""orientation"":{""x"":-0.028909586369991302,""y"":-0.03135630860924721,""z"":0.9990248680114746,""w"":-0.011417984031140804}}}]"
1770511837476045347,1770511837.4760454,world,475882534,1770511837,"[{""name"":""cf1"",""pose"":{""position"":{""x"":-2.663926362991333,""y"":0.838805079460144,""z"":0.07813173532485962},""orientation"":{""x"":0.018141265958547592,""y"":-0.011537838727235794,""z"":-0.0366031788289547,""w"":0.9990985989570618}}},{""name"":""gate_1"",""pose"":{""position"":{""x"":-1.7735146284103394,""y"":0.8768563866615295,""z"":1.0904045104980469},""orientation"":{""x"":0.00265050632879138,""y"":-0.0010999832302331924,""z"":0.034039609134197235,""w"":0.9994163513183594}}},{""name"":""gate_2"",""pose"":{""position"":{""x"":-0.10730358213186264,""y"":0.5079541802406311,""z"":0.8174364566802979},""orientation"":{""x"":0.02132393978536129,""y"":-0.004526846576482058,""z"":0.09679966419935226,""w"":0.9950651526451111}}},{""name"":""gate_3"",""pose"":{""position"":{""x"":1.5230227708816528,""y"":0.7826575040817261,""z"":1.1107347011566162},""orientation"":{""x"":0.005005514249205589,""y"":0.02784113399684429,""z"":-0.22868728637695312,""w"":0.9730888605117798}}},{""name"":""gate_4"",""pose"":{""position"":{""x"":2.442755699157715,""y"":-0.5742478966712952,""z"":1.273101806640625},""orientation"":{""x"":-0.03809993714094162,""y"":0.006305038463324308,""z"":0.8695954084396362,""w"":-0.4922524094581604}}},{""name"":""gate_5"",""pose"":{""position"":{""x"":0.21196982264518738,""y"":-1.1499251127243042,""z"":1.104468822479248},""orientation"":{""x"":-0.032713375985622406,""y"":0.0038505319971591234,""z"":0.9699512124061584,""w"":-0.2410593181848526}}},{""name"":""gate_6"",""pose"":{""position"":{""x"":-1.673142671585083,""y"":-0.9438956379890442,""z"":0.1992562860250473},""orientation"":{""x"":-0.029772881418466568,""y"":-0.031220365315675735,""z"":0.9990047216415405,""w"":-0.011331354267895222}}}]"
1770511837486133380,1770511837.4861336,world,485915735,1770511837,"[{""name"":""cf1"",""pose"":{""position"":{""x"":-2.6652169227600098,""y"":0.8402537107467651,""z"":0.08027833700180054},""orientation"":{""x"":0.03529440611600876,""y"":-0.010285593569278717,""z"":-0.031032392755150795,""w"":0.9988420605659485}}},{""name"":""gate_1"",""pose"":{""position"":{""x"":-1.7734909057617188,""y"":0.876851499080658,""z"":1.0904817581176758},""orientation"":{""x"":0.002537765074521303,""y"":-0.0010679373517632484,""z"":0.03427313640713692,""w"":0.9994087219238281}}},{""name"":""gate_2"",""pose"":{""position"":{""x"":-0.10729274898767471,""y"":0.5079012513160706,""z"":0.8173695802688599},""orientation"":{""x"":0.021249843761324883,""y"":-0.004448307678103447,""z"":0.09674876928329468,""w"":0.9950720071792603}}},{""name"":""gate_3"",""pose"":{""position"":{""x"":1.5230169296264648,""y"":0.7826480269432068,""z"":1.1107227802276611},""orientation"":{""x"":0.0049782670103013515,""y"":0.027836380526423454,""z"":-0.22867165505886078,""w"":0.973092794418335}}},{""name"":""gate_4"",""pose"":{""position"":{""x"":2.44279146194458,""y"":-0.5742218494415283,""z"":1.273098111152649},""orientation"":{""x"":-0.038038093596696854,""y"":0.0063237654976546764,""z"":0.8695863485336304,""w"":-0.4922729432582855}}},{""name"":""gate_5"",""pose"":{""position"":{""x"":0.21207423508167267,""y"":-1.1500153541564941,""z"":1.1044634580612183},""orientation"":{""x"":-0.03276488557457924,""y"":0.004065901041030884,""z"":0.9699476361274719,""w"":-0.241063192486763}}},{""name"":""gate_6"",""pose"":{""position"":{""x"":-1.6730953454971313,""y"":-0.9439564943313599,""z"":0.1993621289730072},""orientation"":{""x"":-0.029923411086201668,""y"":-0.03136279806494713,""z"":0.9989972710609436,""w"":-0.011199124157428741}}}]"
1770511837496144130,1770511837.496144,world,495911230,1770511837,"[{""name"":""cf1"",""pose"":{""position"":{""x"":-2.665865182876587,""y"":0.8413494229316711,""z"":0.08152646571397781},""orientation"":{""x"":0.04874422401189804,""y"":-0.0033930663485080004,""z"":-0.021435927599668503,""w"":0.9985755085945129}}},{""name"":""gate_1"",""pose"":{""position"":{""x"":-1.773489236831665,""y"":0.8768618106842041,""z"":1.0904709100723267},""orientation"":{""x"":0.002541275229305029,""y"":-0.001033513923175633,""z"":0.03425603732466698,""w"":0.9994093179702759}}},{""name"":""gate_2"",""pose"":{""position"":{""x"":-0.10724594444036484,""y"":0.50783771276474,""z"":0.817271888256073},""orientation"":{""x"":0.021106207743287086,""y"":-0.004636772908270359,""z"":0.09674037247896194,""w"":0.9950750470161438}}},{""name"":""gate_3"",""pose"":{""position"":{""x"":1.52301824092865,""y"":0.7826383709907532,""z"":1.1107217073440552},""orientation"":{""x"":0.0050092400051653385,""y"":0.0278196819126606,""z"":-0.22867439687252045,""w"":0.9730924963951111}}},{""name"":""gate_4"",""pose"":{""position"":{""x"":2.4428114891052246,""y"":-0.5741834044456482,""z"":1.2731070518493652},""orientation"":{""x"":-0.037971507757902145,""y"":0.006365351844578981,""z"":0.8695907592773438,""w"":-0.4922698140144348}}},{""name"":""gate_5"",""pose"":{""position"":{""x"":0.21196208894252777,""y"":-1.149937629699707,""z"":1.1044436693191528},""orientation"":{""x"":-0.032690200954675674,""y"":0.0038558251690119505,""z"":0.9699589610099792,""w"":-0.24103137850761414}}},{""name"":""gate_6"",""pose"":{""position"":{""x"":-1.6731194257736206,""y"":-0.9439554214477539,""z"":0.19937071204185486},""orientation"":{""x"":-0.030047139152884483,""y"":-0.031220585107803345,""z"":0.9989965558052063,""w"":-0.011326311156153679}}}]"
1770511837506104333,1770511837.5061042,world,505910408,1770511837,"[{""name"":""cf1"",""pose"":{""position"":{""x"":-2.665689468383789,""y"":0.8425492644309998,""z"":0.08110453933477402},""orientation"":{""x"":0.022161604836583138,""y"":0.0008624058682471514,""z"":-0.03459987789392471,""w"":0.9991551041603088}}},{""name"":""gate_1"",""pose"":{""position"":{""x"":-1.7734752893447876,""y"":0.8768504858016968,""z"":1.0904645919799805},""orientation"":{""x"":0.002536674728617072,""y"":-0.001029232400469482,""z"":0.03426376357674599,""w"":0.9994090795516968}}},{""name"":""gate_2"",""pose"":{""position"":{""x"":-0.10731222480535507,""y"":0.5079662799835205,""z"":0.8174911737442017},""orientation"":{""x"":0.021301407366991043,""y"":-0.0045226458460092545,""z"":0.0967964306473732,""w"":0.9950659275054932}}},{""name"":""gate_3"",""pose"":{""position"":{""x"":1.5230152606964111,""y"":0.7826530337333679,""z"":1.1107147932052612},""orientation"":{""x"":0.0049450513906776905,""y"":0.027806656435132027,""z"":-0.22863954305648804,""w"":0.9731013774871826}}},{""name"":""gate_4"",""pose"":{""position"":{""x"":2.442838430404663,""y"":-0.574134349822998,""z"":1.2730950117111206},""orientation"":{""x"":-0.03791084140539169,""y"":0.006415306590497494,""z"":0.869584858417511,""w"":-0.49228426814079285}}},{""name"":""gate_5"",""pose"":{""position"":{""x"":0.2119428664445877,""y"":-1.1499067544937134,""z"":1.1044533252716064},""orientation"":{""x"":-0.032674431800842285,""y"":0.0038606333546340466,""z"":0.9699553847312927,""w"":-0.24104778468608856}}},{""name"":""gate_6"",""pose"":{""position"":{""x"":-1.6733089685440063,""y"":-0.9438105225563049,""z"":0.1991375833749771},""orientation"":{""x"":-0.02951831929385662,""y"":-0.031134359538555145,""z"":0.99901282787323,""w"":-0.011518958024680614}}}]"
1770511837516111914,1770511837.5161119,world,515905216,1770511837,"[{""name"":""cf1"",""pose"":{""position"":{""x"":-2.667442798614502,""y"":0.8435770869255066,""z"":0.08421237021684647},""orientation"":{""x"":0.020484937354922295,""y"":0.01703907549381256,""z"":-0.036935269832611084,""w"":0.99896240234375}}},{""name"":""gate_1"",""pose"":{""position"":{""x"":-1.773478627204895,""y"":0.8768566846847534,""z"":1.0904585123062134},""orientation"":{""x"":0.0025266511365771294,""y"":-0.001007727812975645,""z"":0.034254852682352066,""w"":0.9994094371795654}}},{""name"":""gate_2"",""pose"":{""position"":{""x"":-0.10730411857366562,""y"":0.5078842043876648,""z"":0.8173424005508423},""orientation"":{""x"":0.021237213164567947,""y"":-0.0044398526661098,""z"":0.09678123891353607,""w"":0.995069146156311}}},{""name"":""gate_3"",""pose"":{""position"":{""x"":1.5230419635772705,""y"":0.7826487421989441,""z"":1.110738754272461},""orientation"":{""x"":0.00497801136225462,""y"":0.02786516770720482,""z"":-0.2286960482597351,""w"":0.9730862379074097}}},{""name"":""gate_4"",""pose"":{""position"":{""x"":2.442845106124878,""y"":-0.5740935206413269,""z"":1.2731233835220337},""orientation"":{""x"":-0.03782019019126892,""y"":0.006464114412665367,""z"":0.86960369348526,""w"":-0.492257297039032}}},{""name"":""gate_5"",""pose"":{""position"":{""x"":0.2119981050491333,""y"":-1.1499323844909668,""z"":1.1044886112213135},""orientation"":{""x"":-0.032638054341077805,""y"":0.0038784670177847147,""z"":0.9699712991714478,""w"":-0.24098846316337585}}},{""name"":""gate_6"",""pose"":{""position"":{""x"":-1.6732125282287598,""y"":-0.9439197778701782,""z"":0.19918282330036163},""orientation"":{""x"":-0.029139216989278793,""y"":-0.03143506124615669,""z"":0.9990182518959045,""w"":-0.0111936554312706}}}]"
1770511837526095631,1770511837.5260956,world,525916468,1770511837,"[{""name"":""cf1"",""pose"":{""position"":{""x"":-2.6676554679870605,""y"":0.8449904322624207,""z"":0.08478769659996033},""orientation"":{""x"":0.038487184792757034,""y"":0.020311783999204636,""z"":-0.02683410607278347,""w"":0.9986922144889832}}},{""name"":""gate_1"",""pose"":{""position"":{""x"":-1.7734696865081787,""y"":0.8768494725227356,""z"":1.0904533863067627},""orientation"":{""x"":0.0025399327278137207,""y"":-0.001052138046361506,""z"":0.034272678196430206,""w"":0.9994087219238281}}},{""name"":""gate_2"",""pose"":{""position"":{""x"":-0.10732701420783997,""y"":0.5079566836357117,""z"":0.8174591064453125},""orientation"":{""x"":0.021305156871676445,""y"":-0.00452440744265914,""z"":0.09682958573102951,""w"":0.9950626492500305}}},{""name"":""gate_3"",""pose"":{""position"":{""x"":1.523049235343933,""y"":0.782647967338562,""z"":1.1107538938522339},""orientation"":{""x"":0.004988642875105143,""y"":0.027853520587086678,""z"":-0.2286897599697113,""w"":0.9730880260467529}}},{""name"":""gate_4"",""pose"":{""position"":{""x"":2.4428319931030273,""y"":-0.5740350484848022,""z"":1.2730733156204224},""orientation"":{""x"":-0.037710998207330704,""y"":0.006609043572098017,""z"":0.8696577548980713,""w"":-0.49216821789741516}}},{""name"":""gate_5"",""pose"":{""position"":{""x"":0.21204321086406708,""y"":-1.1500087976455688,""z"":1.1045663356781006},""orientation"":{""x"":-0.03270040452480316,""y"":0.004131997004151344,""z"":0.9699742197990417,""w"":-0.24096383154392242}}},{""name"":""gate_6"",""pose"":{""position"":{""x"":-1.6731435060501099,""y"":-0.9439888000488281,""z"":0.19927622377872467},""orientation"":{""x"":-0.02943757362663746,""y"":-0.031448669731616974,""z"":0.9990101456642151,""w"":-0.011098256334662437}}}]"
1770511837536634894,1770511837.536635,world,536505927,1770511837,"[{""name"":""cf1"",""pose"":{""position"":{""x"":-2.6684720516204834,""y"":0.8464154601097107,""z"":0.08617674559354782},""orientation"":{""x"":0.035424333065748215,""y"":0.007832045666873455,""z"":-0.029696298763155937,""w"":0.9989003539085388}}},{""name"":""gate_1"",""pose"":{""position"":{""x"":-1.773437261581421,""y"":0.8768455982208252,""z"":1.0904396772384644},""orientation"":{""x"":0.0025811209343373775,""y"":-0.001039702445268631,""z"":0.03435148671269417,""w"":0.9994059205055237}}},{""name"":""gate_2"",""pose"":{""position"":{""x"":-0.10738754272460938,""y"":0.508004367351532,""z"":0.8176232576370239},""orientation"":{""x"":0.021328402683138847,""y"":-0.004645440727472305,""z"":0.09673876315355301,""w"":0.9950703978538513}}},{""name"":""gate_3"",""pose"":{""position"":{""x"":1.5230607986450195,""y"":0.7826620936393738,""z"":1.1107512712478638},""orientation"":{""x"":0.0049605839885771275,""y"":0.02785622887313366,""z"":-0.22869190573692322,""w"":0.9730875492095947}}},{""name"":""gate_4"",""pose"":{""position"":{""x"":2.442854404449463,""y"":-0.5739996433258057,""z"":1.2730779647827148},""orientation"":{""x"":-0.03759409114718437,""y"":0.0066562616266310215,""z"":0.8696849942207336,""w"":-0.49212846159935}}},{""name"":""gate_5"",""pose"":{""position"":{""x"":0.211983785033226,""y"":-1.149923324584961,""z"":1.1045112609863281},""orientation"":{""x"":-0.03262168541550636,""y"":0.003862532787024975,""z"":0.9699720144271851,""w"":-0.2409878820180893}}},{""name"":""gate_6"",""pose"":{""position"":{""x"":-1.6730684041976929,""y"":-0.9440436959266663,""z"":0.19940802454948425},""orientation"":{""x"":-0.029592100530862808,""y"":-0.03167084604501724,""z"":0.9990009665489197,""w"":-0.010879568755626678}}}]"
1770511837546784654,1770511837.5467849,world,546680313,1770511837,"[{""name"":""cf1"",""pose"":{""position"":{""x"":-2.669109344482422,""y"":0.8474608063697815,""z"":0.08768249303102493},""orientation"":{""x"":0.016988573595881462,""y"":0.01348552480340004,""z"":-0.040007419884204865,""w"":0.9989639520645142}}},{""name"":""gate_1"",""pose"":{""position"":{""x"":-1.773452877998352,""y"":0.8768472671508789,""z"":1.0904603004455566},""orientation"":{""x"":0.00254779658280313,""y"":-0.0010397408623248339,""z"":0.03430399298667908,""w"":0.9994076490402222}}},{""name"":""gate_2"",""pose"":{""position"":{""x"":-0.10734058171510696,""y"":0.5079577565193176,""z"":0.8174650073051453},""orientation"":{""x"":0.021319421008229256,""y"":-0.004501112271100283,""z"":0.09685444086790085,""w"":0.9950600266456604}}},{""name"":""gate_3"",""pose"":{""position"":{""x"":1.5230576992034912,""y"":0.7826536893844604,""z"":1.1107406616210938},""orientation"":{""x"":0.0049653248861432076,""y"":0.027862004935741425,""z"":-0.22869570553302765,""w"":0.9730864763259888}}},{""name"":""gate_4"",""pose"":{""position"":{""x"":2.4428763389587402,""y"":-0.5739760994911194,""z"":1.2730470895767212},""orientation"":{""x"":-0.037452779710292816,""y"":0.006737242918461561,""z"":0.8697354197502136,""w"":-0.4920490086078644}}},{""name"":""gate_5"",""pose"":{""position"":{""x"":0.21191775798797607,""y"":-1.1499090194702148,""z"":1.1040934324264526},""orientation"":{""x"":-0.032964423298835754,""y"":0.004334759898483753,""z"":0.9699012041091919,""w"":-0.24121813476085663}}},{""name"":""gate_6"",""pose"":{""position"":{""x"":-1.6732839345932007,""y"":-0.9437814950942993,""z"":0.19917654991149902},""orientation"":{""x"":-0.029583696275949478,""y"":-0.031108636409044266,""z"":0.9990109801292419,""w"":-0.011581643484532833}}}]"
1770511837556534813,1770511837.5565348,world,556336098,1770511837,"[{""name"":""cf1"",""pose"":{""position"":{""x"":-2.6699795722961426,""y"":0.8487396836280823,""z"":0.08944900333881378},""orientation"":{""x"":0.04391797259449959,""y"":0.016216536983847618,""z"":-0.02724902331829071,""w"":0.9985317587852478}}},{""name"":""gate_1"",""pose"":{""position"":{""x"":-1.7734463214874268,""y"":0.8768500089645386,""z"":1.0904722213745117},""orientation"":{""x"":0.002528260461986065,""y"":-0.0010374587727710605,""z"":0.03428216651082039,""w"":0.999408483505249}}},{""name"":""gate_2"",""pose"":{""position"":{""x"":-0.1072995737195015,""y"":0.5078912377357483,""z"":0.81733638048172},""orientation"":{""x"":0.021253803744912148,""y"":-0.004480371251702309,""z"":0.09680387377738953,""w"":0.9950664639472961}}},{""name"":""gate_3"",""pose"":{""position"":{""x"":1.5230392217636108,""y"":0.7826414704322815,""z"":1.1107436418533325},""orientation"":{""x"":0.0050069005228579044,""y"":0.02782854251563549,""z"":-0.2286875993013382,""w"":0.9730891585350037}}},{""name"":""gate_4"",""pose"":{""position"":{""x"":2.442883014678955,""y"":-0.5739442110061646,""z"":1.2730494737625122},""orientation"":{""x"":-0.0373731404542923,""y"":0.006756660528481007,""z"":0.8697664141654968,""w"":-0.49199995398521423}}},{""name"":""gate_5"",""pose"":{""position"":{""x"":0.21198859810829163,""y"":-1.1499274969100952,""z"":1.1044714450836182},""orientation"":{""x"":-0.03266965597867966,""y"":0.003900187788531184,""z"":0.9699609279632568,""w"":-0.24102546274662018}}},{""name"":""gate_6"",""pose"":{""position"":{""x"":-1.6730587482452393,""y"":-0.9440087676048279,""z"":0.1992921531200409},""orientation"":{""x"":-0.02946534939110279,""y"":-0.031473081558942795,""z"":0.9990079998970032,""w"":-0.01114452350884676}}}]"
1770511837566250432,1770511837.5662506,world,566076886,1770511837,"[{""name"":""cf1"",""pose"":{""position"":{""x"":-2.670989990234375,""y"":0.8502135872840881,""z"":0.09196469932794571},""orientation"":{""x"":0.0591185986995697,""y"":0.03620569780468941,""z"":-0.02144422009587288,""w"":0.9973636865615845}}},{""name"":""gate_1"",""pose"":{""position"":{""x"":-1.7734272480010986,""y"":0.8768401741981506,""z"":1.0904535055160522},""orientation"":{""x"":0.002541388152167201,""y"":-0.0010546257253736258,""z"":0.034321945160627365,""w"":0.9994070529937744}}},{""name"":""gate_2"",""pose"":{""position"":{""x"":-0.10734023153781891,""y"":0.507953405380249,""z"":0.8174880146980286},""orientation"":{""x"":0.021294280886650085,""y"":-0.004546212963759899,""z"":0.09684974700212479,""w"":0.9950608015060425}}},{""name"":""gate_3"",""pose"":{""position"":{""x"":1.5230575799942017,""y"":0.7826446294784546,""z"":1.110731601715088},""orientation"":{""x"":0.004977761302143335,""y"":0.027857255190610886,""z"":-0.22869566082954407,""w"":0.9730865955352783}}},{""name"":""gate_4"",""pose"":{""position"":{""x"":2.442903757095337,""y"":-0.5739319920539856,""z"":1.2730480432510376},""orientation"":{""x"":-0.037292443215847015,""y"":0.006836374290287495,""z"":0.8698198795318604,""w"":-0.49191048741340637}}},{""name"":""gate_5"",""pose"":{""position"":{""x"":0.21195347607135773,""y"":-1.149916410446167,""z"":1.1044386625289917},""orientation"":{""x"":-0.0326668806374073,""y"":0.0038792211562395096,""z"":0.9699578881263733,""w"":-0.24103838205337524}}},{""name"":""gate_6"",""pose"":{""position"":{""x"":-1.6730761528015137,""y"":-0.9439378380775452,""z"":0.1993367075920105},""orientation"":{""x"":-0.02993669919669628,""y"":-0.03130504861474037,""z"":0.9989974498748779,""w"":-0.011306787841022015}}}]"
1770511837576105599,1770511837.5761054,world,575942691,1770511837,"[{""name"":""cf1"",""pose"":{""position"":{""x"":-2.671211004257202,""y"":0.8514978289604187,""z"":0.09275460988283157},""orientation"":{""x"":0.04697611927986145,""y"":0.0029818490147590637,""z"":-0.030008377507328987,""w"":0.998440682888031}}},{""name"":""gate_1"",""pose"":{""position"":{""x"":-1.7734112739562988,""y"":0.8768399953842163,""z"":1.0904450416564941},""orientation"":{""x"":0.0025607827119529247,""y"":-0.0010486507089808583,""z"":0.034379590302705765,""w"":0.999405026435852}}},{""name"":""gate_2"",""pose"":{""position"":{""x"":-0.10734744369983673,""y"":0.5079716444015503,""z"":0.8174878358840942},""orientation"":{""x"":0.021307384595274925,""y"":-0.004526184871792793,""z"":0.09686508774757385,""w"":0.9950591325759888}}},{""name"":""gate_3"",""pose"":{""position"":{""x"":1.5230642557144165,""y"":0.7826465368270874,""z"":1.1107125282287598},""orientation"":{""x"":0.0049469745717942715,""y"":0.027873042970895767,""z"":-0.22869199514389038,""w"":0.9730871319770813}}},{""name"":""gate_4"",""pose"":{""position"":{""x"":2.4429211616516113,""y"":-0.5739361643791199,""z"":1.2730488777160645},""orientation"":{""x"":-0.03720968961715698,""y"":0.006850495468825102,""z"":0.8698323965072632,""w"":-0.4918944239616394}}},{""name"":""gate_5"",""pose"":{""position"":{""x"":0.21205465495586395,""y"":-1.1499853134155273,""z"":1.1044145822525024},""orientation"":{""x"":-0.032800912857055664,""y"":0.004021805711090565,""z"":0.9699452519416809,""w"":-0.24106870591640472}}},{""name"":""gate_6"",""pose"":{""position"":{""x"":-1.6730645895004272,""y"":-0.9439511299133301,""z"":0.19932878017425537},""orientation"":{""x"":-0.029795026406645775,""y"":-0.031397316604852676,""z"":0.9989990592002869,""w"":-0.011283152736723423}}}]"
1770511837586100068,1770511837.5860999,world,585945186,1770511837,"[{""name"":""cf1"",""pose"":{""position"":{""x"":-2.672128438949585,""y"":0.8524888753890991,""z"":0.09501773864030838},""orientation"":{""x"":0.05268824100494385,""y"":0.018602319061756134,""z"":-0.028565965592861176,""w"":0.9980289936065674}}},{""name"":""gate_1"",""pose"":{""position"":{""x"":-1.7734270095825195,""y"":0.8768532276153564,""z"":1.090453863143921},""orientation"":{""x"":0.0025562967639416456,""y"":-0.0010532569140195847,""z"":0.0343574583530426,""w"":0.9994058012962341}}},{""name"":""gate_2"",""pose"":{""position"":{""x"":-0.10735052078962326,""y"":0.5079553723335266,""z"":0.8174644112586975},""orientation"":{""x"":0.021307893097400665,""y"":-0.004500992596149445,""z"":0.09687419980764389,""w"":0.9950583577156067}}},{""name"":""gate_3"",""pose"":{""position"":{""x"":1.5230597257614136,""y"":0.7826440334320068,""z"":1.1107200384140015},""orientation"":{""x"":0.004965996369719505,""y"":0.027873659506440163,""z"":-0.22870121896266937,""w"":0.9730848670005798}}},{""name"":""gate_4"",""pose"":{""position"":{""x"":2.442814588546753,""y"":-0.5740043520927429,""z"":1.2729754447937012},""orientation"":{""x"":-0.03684350475668907,""y"":0.007021985482424498,""z"":0.8698574304580688,""w"":-0.4918752610683441}}},{""name"":""gate_5"",""pose"":{""position"":{""x"":0.21196651458740234,""y"":-1.1499543190002441,""z"":1.104532241821289},""orientation"":{""x"":-0.032811239361763,""y"":0.0038757093716412783,""z"":0.9699882864952087,""w"":-0.24089641869068146}}},{""name"":""gate_6"",""pose"":{""position"":{""x"":-1.6732580661773682,""y"":-0.9437856674194336,""z"":0.19913262128829956},""orientation"":{""x"":-0.029341846704483032,""y"":-0.031127629801630974,""z"":0.999016523361206,""w"":-0.011664219200611115}}}]"
1770511837597440601,1770511837.5974405,world,597252985,1770511837,"[{""name"":""cf1"",""pose"":{""position"":{""x"":-2.672213554382324,""y"":0.8536399006843567,""z"":0.09556972235441208},""orientation"":{""x"":0.040639087557792664,""y"":0.013417020440101624,""z"":-0.03036458045244217,""w"":0.9986222982406616}}},{""name"":""gate_1"",""pose"":{""position"":{""x"":-1.773421049118042,""y"":0.8768470883369446,""z"":1.0904541015625},""orientation"":{""x"":0.002551094861701131,""y"":-0.0010893050348386168,""z"":0.03436894342303276,""w"":0.9994053840637207}}},{""name"":""gate_2"",""pose"":{""position"":{""x"":-0.10734857618808746,""y"":0.507941484451294,""z"":0.8174435496330261},""orientation"":{""x"":0.021292025223374367,""y"":-0.004488737788051367,""z"":0.09689440578222275,""w"":0.9950567483901978}}},{""name"":""gate_3"",""pose"":{""position"":{""x"":1.5230597257614136,""y"":0.7826319932937622,""z"":1.1107323169708252},""orientation"":{""x"":0.00501273525878787,""y"":0.027869511395692825,""z"":-0.22871819138526917,""w"":0.9730807542800903}}},{""name"":""gate_4"",""pose"":{""position"":{""x"":2.4427971839904785,""y"":-0.5739956498146057,""z"":1.2729624509811401},""orientation"":{""x"":-0.03681628033518791,""y"":0.007038142532110214,""z"":0.8698583245277405,""w"":-0.4918754994869232}}},{""name"":""gate_5"",""pose"":{""position"":{""x"":0.2119579315185547,""y"":-1.149960994720459,""z"":1.1045656204223633},""orientation"":{""x"":-0.03283209353685379,""y"":0.0038908820133656263,""z"":0.9699901938438416,""w"":-0.2408856302499771}}},{""name"":""gate_6"",""pose"":{""position"":{""x"":-1.673117995262146,""y"":-0.9438813328742981,""z"":0.19921280443668365},""orientation"":{""x"":-0.02916857600212097,""y"":-0.031465258449316025,""z"":0.999015212059021,""w"":-0.011303151957690716}}}]"
1770511837606151928,1770511837.6061518,world,605977686,1770511837,"[{""name"":""cf1"",""pose"":{""position"":{""x"":-2.673466205596924,""y"":0.8547545671463013,""z"":0.0982251912355423},""orientation"":{""x"":0.04128887504339218,""y"":0.006650645285844803,""z"":-0.03220422938466072,""w"":0.9986059665679932}}},{""name"":""gate_1"",""pose"":{""position"":{""x"":-1.7734297513961792,""y"":0.8768491744995117,""z"":1.0904486179351807},""orientation"":{""x"":0.00254891999065876,""y"":-0.0010818035807460546,""z"":0.0343802347779274,""w"":0.9994049668312073}}},{""name"":""gate_2"",""pose"":{""position"":{""x"":-0.10732441395521164,""y"":0.5078699588775635,""z"":0.8173362016677856},""orientation"":{""x"":0.021248025819659233,""y"":-0.004464738070964813,""z"":0.09683660417795181,""w"":0.9950634241104126}}},{""name"":""gate_3"",""pose"":{""position"":{""x"":1.5230633020401,""y"":0.7826381325721741,""z"":1.110719919204712},""orientation"":{""x"":0.0049798558466136456,""y"":0.027893392369151115,""z"":-0.228722482919693,""w"":0.9730792045593262}}},{""name"":""gate_4"",""pose"":{""position"":{""x"":2.4428961277008057,""y"":-0.5739403367042542,""z"":1.2730536460876465},""orientation"":{""x"":-0.037108756601810455,""y"":0.006909625139087439,""z"":0.8698235154151917,""w"":-0.4919169545173645}}},{""name"":""gate_5"",""pose"":{""position"":{""x"":0.21204259991645813,""y"":-1.1500134468078613,""z"":1.1045197248458862},""orientation"":{""x"":-0.03298349678516388,""y"":0.004055624362081289,""z"":0.9699743986129761,""w"":-0.24092599749565125}}},{""name"":""gate_6"",""pose"":{""position"":{""x"":-1.672976016998291,""y"":-0.9440545439720154,""z"":0.19936515390872955},""orientation"":{""x"":-0.029498077929019928,""y"":-0.03164710849523544,""z"":0.9990025162696838,""w"":-0.011058934964239597}}}]"
1770511837616166255,1770511837.616166,world,615989140,1770511837,"[{""name"":""cf1"",""pose"":{""position"":{""x"":-2.6743268966674805,""y"":0.8560416102409363,""z"":0.10062897205352783},""orientation"":{""x"":0.05162310600280762,""y"":0.00208549527451396,""z"":-0.027448540553450584,""w"":0.9982872009277344}}},{""name"":""gate_1"",""pose"":{""position"":{""x"":-1.7734508514404297,""y"":0.8768508434295654,""z"":1.0904537439346313},""orientation"":{""x"":0.0025393404066562653,""y"":-0.0010995897464454174,""z"":0.03435076028108597,""w"":0.9994059801101685}}},{""name"":""gate_2"",""pose"":{""position"":{""x"":-0.10732638090848923,""y"":0.5078852772712708,""z"":0.8173513412475586},""orientation"":{""x"":0.021260680630803108,""y"":-0.004483664408326149,""z"":0.09681051224470139,""w"":0.9950656294822693}}},{""name"":""gate_3"",""pose"":{""position"":{""x"":1.5230613946914673,""y"":0.7826144695281982,""z"":1.1107372045516968},""orientation"":{""x"":0.005022858735173941,""y"":0.027900831773877144,""z"":-0.2287374585866928,""w"":0.973075270652771}}},{""name"":""gate_4"",""pose"":{""position"":{""x"":2.442793607711792,""y"":-0.5740153193473816,""z"":1.272987961769104},""orientation"":{""x"":-0.03684457391500473,""y"":0.007028129883110523,""z"":0.8698107004165649,""w"":-0.49195775389671326}}},{""name"":""gate_5"",""pose"":{""position"":{""x"":0.21201695501804352,""y"":-1.149979829788208,""z"":1.1044186353683472},""orientation"":{""x"":-0.03283311054110527,""y"":0.004015049897134304,""z"":0.9699541926383972,""w"":-0.24102839827537537}}},{""name"":""gate_6"",""pose"":{""position"":{""x"":-1.6731369495391846,""y"":-0.9438864588737488,""z"":0.19922512769699097},""orientation"":{""x"":-0.029453221708536148,""y"":-0.031176822260022163,""z"":0.9990140795707703,""w"":-0.011461799032986164}}}]"
1770511837626211507,1770511837.6262116,world,626021477,1770511837,"[{""name"":""cf1"",""pose"":{""position"":{""x"":-2.6748080253601074,""y"":0.8569831252098083,""z"":0.10230441391468048},""orientation"":{""x"":0.046053458005189896,""y"":-0.0006382613210007548,""z"":-0.029090095311403275,""w"":0.9985151290893555}}},{""name"":""gate_1"",""pose"":{""position"":{""x"":-1.773497223854065,""y"":0.8768438696861267,""z"":1.0904145240783691},""orientation"":{""x"":0.002626060741022229,""y"":-0.0011114138178527355,""z"":0.034082431346178055,""w"":0.9994149804115295}}},{""name"":""gate_2"",""pose"":{""position"":{""x"":-0.10735634714365005,""y"":0.5079431533813477,""z"":0.8174753785133362},""orientation"":{""x"":0.021300863474607468,""y"":-0.0045477780513465405,""z"":0.09683430939912796,""w"":0.9950621724128723}}},{""name"":""gate_3"",""pose"":{""position"":{""x"":1.523051381111145,""y"":0.7826351523399353,""z"":1.1107252836227417},""orientation"":{""x"":0.004978042561560869,""y"":0.027868090197443962,""z"":-0.22869376838207245,""w"":0.9730867147445679}}},{""name"":""gate_4"",""pose"":{""position"":{""x"":2.442897081375122,""y"":-0.5739498138427734,""z"":1.2730602025985718},""orientation"":{""x"":-0.03718249499797821,""y"":0.006880656816065311,""z"":0.8697699308395386,""w"":-0.4920065402984619}}},{""name"":""gate_5"",""pose"":{""position"":{""x"":0.2120068073272705,""y"":-1.14994478225708,""z"":1.1044644117355347},""orientation"":{""x"":-0.03264861926436424,""y"":0.0038339097518473864,""z"":0.9699613451957703,""w"":-0.24102777242660522}}},{""name"":""gate_6"",""pose"":{""position"":{""x"":-1.673120141029358,""y"":-0.9438648223876953,""z"":0.19927269220352173},""orientation"":{""x"":-0.029621005058288574,""y"":-0.03124486468732357,""z"":0.9990065693855286,""w"":-0.011500638909637928}}}]"
1770511837636181889,1770511837.636182,world,636005344,1770511837,"[{""name"":""cf1"",""pose"":{""position"":{""x"":-2.6751320362091064,""y"":0.8581147789955139,""z"":0.10449034720659256},""orientation"":{""x"":0.040202461183071136,""y"":0.011293132789433002,""z"":-0.03361225873231888,""w"":0.998562216758728}}},{""name"":""gate_1"",""pose"":{""position"":{""x"":-1.773432970046997,""y"":0.8768459558486938,""z"":1.0904622077941895},""orientation"":{""x"":0.00255202385596931,""y"":-0.0010988508583977818,""z"":0.03435712680220604,""w"":0.9994057416915894}}},{""name"":""gate_2"",""pose"":{""position"":{""x"":-0.10732655972242355,""y"":0.5078653693199158,""z"":0.8173277378082275},""orientation"":{""x"":0.021237138658761978,""y"":-0.004525872878730297,""z"":0.09681544452905655,""w"":0.995065450668335}}},{""name"":""gate_3"",""pose"":{""position"":{""x"":1.523056983947754,""y"":0.7826259732246399,""z"":1.1107282638549805},""orientation"":{""x"":0.004982205107808113,""y"":0.027887439355254173,""z"":-0.22872205078601837,""w"":0.97307950258255}}},{""name"":""gate_4"",""pose"":{""position"":{""x"":2.4427828788757324,""y"":-0.5740421414375305,""z"":1.272980809211731},""orientation"":{""x"":-0.036905355751514435,""y"":0.006968228612095118,""z"":0.8697274327278137,""w"":-0.4921012222766876}}},{""name"":""gate_5"",""pose"":{""position"":{""x"":0.21197454631328583,""y"":-1.1499300003051758,""z"":1.1044641733169556},""orientation"":{""x"":-0.03268779441714287,""y"":0.0038845103699713945,""z"":0.969948410987854,""w"":-0.24107371270656586}}},{""name"":""gate_6"",""pose"":{""position"":{""x"":-1.6731520891189575,""y"":-0.9438552260398865,""z"":0.1992207169532776},""orientation"":{""x"":-0.02928845025599003,""y"":-0.031238781288266182,""z"":0.9990170001983643,""w"":-0.01146063581109047}}}]"
1770511837646201260,1770511837.6462014,world,646016497,1770511837,"[{""name"":""cf1"",""pose"":{""position"":{""x"":-2.6754090785980225,""y"":0.8594403266906738,""z"":0.10721967369318008},""orientation"":{""x"":0.047455038875341415,""y"":0.025367261841893196,""z"":-0.04072071611881256,""w"":0.9977205991744995}}},{""name"":""gate_1"",""pose"":{""position"":{""x"":-1.7734837532043457,""y"":0.8768455386161804,""z"":1.0904115438461304},""orientation"":{""x"":0.0026409777346998453,""y"":-0.0011144608724862337,""z"":0.03409608080983162,""w"":0.9994144439697266}}},{""name"":""gate_2"",""pose"":{""position"":{""x"":-0.10737507790327072,""y"":0.5078782439231873,""z"":0.817443311214447},""orientation"":{""x"":0.021228069439530373,""y"":-0.004681400954723358,""z"":0.09668519347906113,""w"":0.9950776100158691}}},{""name"":""gate_3"",""pose"":{""position"":{""x"":1.5230494737625122,""y"":0.7826215028762817,""z"":1.1107362508773804},""orientation"":{""x"":0.005014228634536266,""y"":0.027854785323143005,""z"":-0.22869794070720673,""w"":0.9730859398841858}}},{""name"":""gate_4"",""pose"":{""position"":{""x"":2.442878246307373,""y"":-0.5739864110946655,""z"":1.2730427980422974},""orientation"":{""x"":-0.037296999245882034,""y"":0.006813625805079937,""z"":0.8697041869163513,""w"":-0.49211496114730835}}},{""name"":""gate_5"",""pose"":{""position"":{""x"":0.21207107603549957,""y"":-1.1500053405761719,""z"":1.1044728755950928},""orientation"":{""x"":-0.0328533835709095,""y"":0.004069600719958544,""z"":0.9699426889419556,""w"":-0.2410711646080017}}},{""name"":""gate_6"",""pose"":{""position"":{""x"":-1.6729530096054077,""y"":-0.9439821839332581,""z"":0.19927437603473663},""orientation"":{""x"":-0.029210787266492844,""y"":-0.03142651170492172,""z"":0.9990182518959045,""w"":-0.011029914021492004}}}]"
1770511837656680383,1770511837.6566803,world,656442773,1770511837,"[{""name"":""cf1"",""pose"":{""position"":{""x"":-2.677281141281128,""y"":0.8601801991462708,""z"":0.11031241714954376},""orientation"":{""x"":0.06272747367620468,""y"":-0.023843318223953247,""z"":-0.018359454348683357,""w"":0.997576892375946}}},{""name"":""gate_1"",""pose"":{""position"":{""x"":-1.7734572887420654,""y"":0.876844584941864,""z"":1.0904792547225952},""orientation"":{""x"":0.002537039341405034,""y"":-0.0010636881925165653,""z"":0.03431957960128784,""w"":0.9994071125984192}}},{""name"":""gate_2"",""pose"":{""position"":{""x"":-0.1072802022099495,""y"":0.5078244805335999,""z"":0.8172630667686462},""orientation"":{""x"":0.02111883834004402,""y"":-0.004703945945948362,""z"":0.09676133841276169,""w"":0.9950724244117737}}},{""name"":""gate_3"",""pose"":{""position"":{""x"":1.5230480432510376,""y"":0.7826460003852844,""z"":1.1107274293899536},""orientation"":{""x"":0.0049841077998280525,""y"":0.02786639891564846,""z"":-0.22868897020816803,""w"":0.9730878472328186}}},{""name"":""gate_4"",""pose"":{""position"":{""x"":2.4428513050079346,""y"":-0.574016273021698,""z"":1.2730573415756226},""orientation"":{""x"":-0.03736419975757599,""y"":0.006775799207389355,""z"":0.8696702718734741,""w"":-0.4921702742576599}}},{""name"":""gate_5"",""pose"":{""position"":{""x"":0.2119443267583847,""y"":-1.149953007698059,""z"":1.1045491695404053},""orientation"":{""x"":-0.032852448523044586,""y"":0.0038888324052095413,""z"":0.9699987173080444,""w"":-0.2408486157655716}}},{""name"":""gate_6"",""pose"":{""position"":{""x"":-1.672878623008728,""y"":-0.9440634250640869,""z"":0.1994083672761917},""orientation"":{""x"":-0.029349204152822495,""y"":-0.031563423573970795,""z"":0.9990115761756897,""w"":-0.01087235752493143}}}]"
1770511837666201140,1770511837.666201,world,666057494,1770511837,"[{""name"":""cf1"",""pose"":{""position"":{""x"":-2.677912712097168,""y"":0.8607721328735352,""z"":0.11328393220901489},""orientation"":{""x"":0.07500805705785751,""y"":0.010550855658948421,""z"":-0.014062916859984398,""w"":0.9970279335975647}}},{""name"":""gate_1"",""pose"":{""position"":{""x"":-1.773450493812561,""y"":0.8768441081047058,""z"":1.090468168258667},""orientation"":{""x"":0.0025532350409775972,""y"":-0.0010645200964063406,""z"":0.034332867711782455,""w"":0.999406635761261}}},{""name"":""gate_2"",""pose"":{""position"":{""x"":-0.10733584314584732,""y"":0.5078878402709961,""z"":0.8173754215240479},""orientation"":{""x"":0.021274494007229805,""y"":-0.004515548702329397,""z"":0.0968100056052208,""w"":0.9950652122497559}}},{""name"":""gate_3"",""pose"":{""position"":{""x"":1.5230505466461182,""y"":0.7826602458953857,""z"":1.1107211112976074},""orientation"":{""x"":0.004959016107022762,""y"":0.02787182666361332,""z"":-0.22869636118412018,""w"":0.9730861186981201}}},{""name"":""gate_4"",""pose"":{""position"":{""x"":2.4428601264953613,""y"":-0.5740634202957153,""z"":1.2730541229248047},""orientation"":{""x"":-0.0374286063015461,""y"":0.006720830220729113,""z"":0.8696697354316711,""w"":-0.4921671450138092}}},{""name"":""gate_5"",""pose"":{""position"":{""x"":0.21196217834949493,""y"":-1.149910569190979,""z"":1.1044501066207886},""orientation"":{""x"":-0.0326913483440876,""y"":0.003844907507300377,""z"":0.969952404499054,""w"":-0.24105769395828247}}},{""name"":""gate_6"",""pose"":{""position"":{""x"":-1.6730302572250366,""y"":-0.9439432621002197,""z"":0.19921128451824188},""orientation"":{""x"":-0.028784191235899925,""y"":-0.03147842735052109,""z"":0.9990283846855164,""w"":-0.011082478798925877}}}]"
1770511837674236362,1770511837.6742363,world,674038749,1770511837,"[{""name"":""cf1"",""pose"":{""position"":{""x"":-2.677548408508301,""y"":0.8618645668029785,""z"":0.11519400775432587},""orientation"":{""x"":0.05897694081068039,""y"":0.023393986746668816,""z"":-0.025425029918551445,""w"":0.997661292552948}}},{""name"":""gate_1"",""pose"":{""position"":{""x"":-1.773471474647522,""y"":0.8768524527549744,""z"":1.0904706716537476},""orientation"":{""x"":0.0025327415205538273,""y"":-0.001069621299393475,""z"":0.03427230566740036,""w"":0.9994087219238281}}},{""name"":""gate_2"",""pose"":{""position"":{""x"":-0.1073407530784607,""y"":0.5079590678215027,""z"":0.8174722194671631},""orientation"":{""x"":0.021319253370165825,""y"":-0.004581169690936804,""z"":0.09680671244859695,""w"":0.9950643181800842}}},{""name"":""gate_3"",""pose"":{""position"":{""x"":1.5230393409729004,""y"":0.7826350927352905,""z"":1.1107369661331177},""orientation"":{""x"":0.005011352244764566,""y"":0.02784723788499832,""z"":-0.22869165241718292,""w"":0.9730876088142395}}},{""name"":""gate_4"",""pose"":{""position"":{""x"":2.442695379257202,""y"":-0.5741614699363708,""z"":1.2729763984680176},""orientation"":{""x"":-0.037169136106967926,""y"":0.006822837051004171,""z"":0.8696593642234802,""w"":-0.4922036826610565}}},{""name"":""gate_5"",""pose"":{""position"":{""x"":0.21204538643360138,""y"":-1.1500073671340942,""z"":1.1044210195541382},""orientation"":{""x"":-0.032846298068761826,""y"":0.004069353453814983,""z"":0.9699418544769287,""w"":-0.2410753220319748}}},{""name"":""gate_6"",""pose"":{""position"":{""x"":-1.6729947328567505,""y"":-0.9439703822135925,""z"":0.19920296967029572},""orientation"":{""x"":-0.028686165809631348,""y"":-0.031507715582847595,""z"":0.9990306496620178,""w"":-0.011052042245864868}}}]"
1770511837684267869,1770511837.6842678,world,684045931,1770511837,"[{""name"":""cf1"",""pose"":{""position"":{""x"":-2.678123950958252,""y"":0.8626668453216553,""z"":0.11744648218154907},""orientation"":{""x"":0.048941608518362045,""y"":0.004296130035072565,""z"":-0.02721264585852623,""w"":0.9984216094017029}}},{""name"":""gate_1"",""pose"":{""position"":{""x"":-1.7735358476638794,""y"":0.8768522143363953,""z"":1.0904150009155273},""orientation"":{""x"":0.002596259117126465,""y"":-0.0011112391948699951,""z"":0.0339871421456337,""w"":0.9994182586669922}}},{""name"":""gate_2"",""pose"":{""position"":{""x"":-0.10732400417327881,""y"":0.5079667568206787,""z"":0.8174877762794495},""orientation"":{""x"":0.02135704830288887,""y"":-0.0046071745455265045,""z"":0.09683483839035034,""w"":0.9950606226921082}}},{""name"":""gate_3"",""pose"":{""position"":{""x"":1.5230423212051392,""y"":0.782647430896759,""z"":1.1107405424118042},""orientation"":{""x"":0.004983465187251568,""y"":0.0278584323823452,""z"":-0.22869165241718292,""w"":0.9730874300003052}}},{""name"":""gate_4"",""pose"":{""position"":{""x"":2.442790985107422,""y"":-0.5741735696792603,""z"":1.2731029987335205},""orientation"":{""x"":-0.03753563389182091,""y"":0.006616371218115091,""z"":0.8696240186691284,""w"":-0.4922412037849426}}},{""name"":""gate_5"",""pose"":{""position"":{""x"":0.2120441496372223,""y"":-1.1499848365783691,""z"":1.104421615600586},""orientation"":{""x"":-0.032833583652973175,""y"":0.004010479431599379,""z"":0.9699386358261108,""w"":-0.2410910427570343}}},{""name"":""gate_6"",""pose"":{""position"":{""x"":-1.672931432723999,""y"":-0.9439477920532227,""z"":0.19923539459705353},""orientation"":{""x"":-0.028632331639528275,""y"":-0.031438834965229034,""z"":0.9990338087081909,""w"":-0.011100570671260357}}}]"
1770511837696336635,1770511837.6963367,world,696096120,1770511837,"[{""name"":""cf1"",""pose"":{""position"":{""x"":-2.678380012512207,""y"":0.86355060338974,""z"":0.12011726945638657},""orientation"":{""x"":0.053253043442964554,""y"":-0.006584071088582277,""z"":-0.027139458805322647,""w"":0.9981904625892639}}},{""name"":""gate_1"",""pose"":{""position"":{""x"":-1.7734794616699219,""y"":0.8768482804298401,""z"":1.0904474258422852},""orientation"":{""x"":0.0025414912961423397,""y"":-0.0010481425561010838,""z"":0.034291692078113556,""w"":0.9994080662727356}}},{""name"":""gate_2"",""pose"":{""position"":{""x"":-0.10735403001308441,""y"":0.5079493522644043,""z"":0.8174899220466614},""orientation"":{""x"":0.021331869065761566,""y"":-0.004580843728035688,""z"":0.096805639564991,""w"":0.9950641393661499}}},{""name"":""gate_3"",""pose"":{""position"":{""x"":1.5230470895767212,""y"":0.7826575636863708,""z"":1.1107527017593384},""orientation"":{""x"":0.004943206440657377,""y"":0.027861332520842552,""z"":-0.22866755723953247,""w"":0.9730932712554932}}},{""name"":""gate_4"",""pose"":{""position"":{""x"":2.4427406787872314,""y"":-0.5742171406745911,""z"":1.2730960845947266},""orientation"":{""x"":-0.03757563233375549,""y"":0.006584899500012398,""z"":0.8696030378341675,""w"":-0.492275595664978}}},{""name"":""gate_5"",""pose"":{""position"":{""x"":0.21205779910087585,""y"":-1.150000810623169,""z"":1.1044563055038452},""orientation"":{""x"":-0.032802075147628784,""y"":0.004059411585330963,""z"":0.9699360728263855,""w"":-0.24110499024391174}}},{""name"":""gate_6"",""pose"":{""position"":{""x"":-1.6729391813278198,""y"":-0.943947434425354,""z"":0.19919249415397644},""orientation"":{""x"":-0.028636999428272247,""y"":-0.03136755898594856,""z"":0.9990360140800476,""w"":-0.011089744046330452}}}]"
